[
  {"name": "Alewife",         "lon": -71.1427, "lat": 42.3954, "branch": "Main"},
  {"name": "Davis",           "lon": -71.1222, "lat": 42.3967, "branch": "Main"},
  {"name": "Porter",          "lon": -71.1191, "lat": 42.3885, "branch": "Main"},
  {"name": "Harvard",         "lon": -71.1189, "lat": 42.3732, "branch": "Main"},
  {"name": "Central",         "lon": -71.1035, "lat": 42.3652, "branch": "Main"},
  {"name": "Kendall/MIT",     "lon": -71.0862, "lat": 42.3624, "branch": "Main"},
  {"name": "Charles/MGH",     "lon": -71.0706, "lat": 42.3612, "branch": "Main"},
  {"name": "Park Street",     "lon": -71.0622, "lat": 42.3561, "branch": "Main"},
  {"name": "Downtown Crossing","lon": -71.0594, "lat": 42.3555, "branch": "Main"},
  {"name": "South Station",   "lon": -71.0553, "lat": 42.3521, "branch": "Main"},
  {"name": "Broadway",        "lon": -71.0569, "lat": 42.3428, "branch": "Main"},
  {"name": "Andrew",          "lon": -71.0571, "lat": 42.3300, "branch": "Main"},
  {"name": "JFK/UMass",       "lon": -71.0527, "lat": 42.3204, "branch": "Main"},
  {"name": "Savin Hill",      "lon": -71.0532, "lat": 42.3107, "branch": "Ashmont"},
  {"name": "Fields Corner",   "lon": -71.0610, "lat": 42.3004, "branch": "Ashmont"},
  {"name": "Shawmut",         "lon": -71.0661, "lat": 42.2934, "branch": "Ashmont"},
  {"name": "Ashmont",         "lon": -71.0637, "lat": 42.2843, "branch": "Ashmont"},
  {"name": "North Quincy",    "lon": -71.0294, "lat": 42.2753, "branch": "Braintree"},
  {"name": "Wollaston",       "lon": -71.0202, "lat": 42.2668, "branch": "Braintree"},
  {"name": "Quincy Center",   "lon": -71.0050, "lat": 42.2514, "branch": "Braintree"},
  {"name": "Quincy Adams",    "lon": -71.0074, "lat": 42.2333, "branch": "Braintree"},
  {"name": "Braintree",       "lon": -71.0013, "lat": 42.2074, "branch": "Braintree"}
]
