[
  {"name": "Boylston",        "lon": -71.0621, "lat": 42.3523, "year_opened": 1897, "branch": "Trunk"},
  {"name": "Park Street",     "lon": -71.0622, "lat": 42.3561, "year_opened": 1897, "branch": "Trunk"},
  {"name": "Haymarket",       "lon": -71.0576, "lat": 42.3629, "year_opened": 1898, "branch": "Trunk"},
  {"name": "North Station",   "lon": -71.0607, "lat": 42.3663, "year_opened": 1912, "branch": "Trunk"},
  {"name": "Science Park",    "lon": -71.0656, "lat": 42.3698, "year_opened": 1912, "branch": "Trunk"},
  {"name": "Lechmere",        "lon": -71.0742, "lat": 42.3706, "year_opened": 1912, "branch": "Trunk"},
  {"name": "Arlington",       "lon": -71.0700, "lat": 42.3498, "year_opened": 1914, "branch": "Trunk"},
  {"name": "Copley",          "lon": -71.0755, "lat": 42.3490, "year_opened": 1914, "branch": "Trunk"},
  {"name": "Kenmore",         "lon": -71.0950, "lat": 42.3482, "year_opened": 1932, "branch": "Trunk"},
  {"name": "Boston College",  "lon": -71.1661, "lat": 42.3565, "year_opened": 1932, "branch": "B"},
  {"name": "Cleveland Circle","lon": -71.1457, "lat": 42.3398, "year_opened": 1932, "branch": "C"},
  {"name": "Heath Street",    "lon": -71.1106, "lat": 42.3199, "year_opened": 1941, "branch": "E"},
  {"name": "Riverside",       "lon": -71.2344, "lat": 42.3254, "year_opened": 1959, "branch": "D"},
  {"name": "Union Square",    "lon": -71.0949, "lat": 42.3778, "year_opened": 2022, "branch": "GLX-D"},
  {"name": "East Somerville", "lon": -71.0850, "lat": 42.3800, "year_opened": 2022, "branch": "GLX-E"},
  {"name": "Gilman Square",   "lon": -71.0898, "lat": 42.3862, "year_opened": 2022, "branch": "GLX-E"},
  {"name": "Magoun Square",   "lon": -71.1024, "lat": 42.3969, "year_opened": 2022, "branch": "GLX-E"},
  {"name": "Ball Square",     "lon": -71.1136, "lat": 42.4072, "year_opened": 2022, "branch": "GLX-E"},
  {"name": "Medford/Tufts",   "lon": -71.1188, "lat": 42.4085, "year_opened": 2022, "branch": "GLX-E"}
]
